name,lat,lon
어울,37.6063267,126.935109
은평국제,37.5989680,126.911449
자연,37.6031294,126.937422
서문,37.5915568,126.916700
다원,37.6154918,126.911180
홍익,37.5962711,126.907613
진관,37.6314578,126.924777
보듬손,37.6183752,126.924157
